[{"address":"Mirker Str. 48a, 42105 Wuppertal, Germany","contact_email":"info@devtal.de","contact_irc":"ircs://irc.libera.chat/devtal","contact_ml":"discuss@lists.devtal.de","contact_wiki":"","id":1,"lat":"51.26695","lng":"7.1457","name":"/dev/tal","url":"https://www.devtal.de/blog/"},{"address":"57North Hacklab, c/o Aberdeen Action on Disability, Suite H, Kettock Lodge, Innovation Park, Campus Two, Bridge of Don, Aberdeen AB22 8GU","contact_email":"","contact_irc":"irc://irc.libera.chat/#57N","contact_ml":"57north-discuss@lists.57north.org.uk","contact_wiki":"","id":2,"lat":"57.17947","lng":"-2.110614","name":"57North Hacklab","url":"https://57north.org.uk/"},{"address":"Kloosterweg 1, 6412 CN Heerlen","contact_email":"contact@ackspace.nl","contact_irc":"ircs://irc.libera.chat:6697/ACKspace","contact_ml":"info@lists.ackspace.nl","contact_wiki":"","id":3,"lat":"50.8924622","lng":"5.9712601","name":"ACKspace","url":"https://ackspace.nl/"},{"address":"Margaretenstr. 30, 10317 Berlin, Germany","contact_email":"info@afra-berlin.de","contact_irc":"irc://irc.freenode.net/#afra","contact_ml":"afra@afra-berlin.de","contact_wiki":"","id":4,"lat":"52.5082224","lng":"13.4961541","name":"AFRA","url":"https://afra-berlin.de"},{"address":"Youth Resource Center/MakerSpace, Station Road, Glanamman, SA18 1LQ, Wales, United Kingdom","contact_email":"robvenus@cwmamantc.org","contact_irc":"","contact_ml":"","contact_wiki":"","id":5,"lat":"51.80626","lng":"-3.92288","name":"Amman Valley MakerSpace","url":"https://cwmaman.org.uk/makerspace/"},{"address":"","contact_email":"","contact_irc":"irc://irc.freenode.net/apollo","contact_ml":"talk@apollo.open-resource.org","contact_wiki":"","id":6,"lat":null,"lng":null,"name":"Apollo-NG","url":"https://apollo.open-resource.org"},{"address":"Eschelsweg 4, 22767 Hamburg, Germany","contact_email":"office@attraktor.org","contact_irc":"","contact_ml":"traktoristen@lists.attraktor.org","contact_wiki":"","id":7,"lat":"53.5498443","lng":"9.946661","name":"Attraktor Makerspace","url":"https://blog.attraktor.org/"},{"address":"Franciscusweg 18, 1216 SK, Hilversum, The Netherlands","contact_email":"info@awesomeretro.org","contact_irc":"","contact_ml":"","contact_wiki":"","id":8,"lat":"52.213528","lng":"5.145344","name":"AwesomeSpace","url":"https://awesomespace.nl"},{"address":"Lanskoe shosse, 14/1, 197343, Saint-Petersburg, Russia","contact_email":"","contact_irc":"","contact_ml":"","contact_wiki":"","id":9,"lat":"59.993811","lng":"30.309332","name":"B4CKSP4CE","url":"https://0x08.in"},{"address":"AMIV Bastli, CAB E38, Universit\u00e4tsstrasse 6, 8092 Z\u00fcrich, Switzerland","contact_email":"go to http://bastli.ch/index.php?page=info","contact_irc":"","contact_ml":"","contact_wiki":"","id":10,"lat":"47.37861","lng":"8.54924","name":"Bastli","url":"http://www.bastli.ch/"},{"address":"Binary Kitchen e.V., Walderdorffstr. 13b, 93053 Regensburg","contact_email":"info@binary-kitchen.de","contact_irc":"irc://irc.hackint.org/#binary-kitchen","contact_ml":"","contact_wiki":"","id":11,"lat":"49.00985285639763","lng":"12.118982076644897","name":"Binary Kitchen","url":"https://www.binary-kitchen.de"},{"address":"Nijverheidsweg-Noord 77, 3812 PK Amersfoort, The Netherlands","contact_email":"info@bitlair.nl","contact_irc":"irc://irc.smurfnet.ch/bitlair","contact_ml":"general@list.bitlair.nl","contact_wiki":"","id":12,"lat":"52.1697399","lng":"5.3561364","name":"Bitlair","url":"https://bitlair.nl/"},{"address":"134 Avenue du G\u00e9n\u00e9ral Leclerc, 35000 Rennes","contact_email":"contact@breizh-entropy.org","contact_irc":"ircs://irc.libera.chat/#breizh-entropy","contact_ml":"","contact_wiki":"","id":13,"lat":"48.11387","lng":"-1.63699","name":"Breizh Entropy","url":"https://wiki.breizh-entropy.org/wiki/Breizh-Entropy"},{"address":"Spalbeekstraat 34, 3510 Spalbeek, Belgium","contact_email":"info@brixel.be","contact_irc":null,"contact_ml":null,"contact_wiki":"","id":14,"lat":"50.95099639892578","lng":"5.230583190917969","name":"Brixel","url":"http://brixel.be"},{"address":"146 Wickham St, Fortitude Valley, QLD 4006 Australia","contact_email":"hello@brisbanemaker.space","contact_irc":"","contact_ml":"","contact_wiki":"","id":15,"lat":"-27.458819","lng":"153.032185","name":"Brisbane Makerspace","url":"https://brisbanemaker.space"},{"address":"Liebknechtstrasse 8, 99085 Erfurt, Germany","contact_email":"kontakt@technikkultur-erfurt.de","contact_irc":"irc://irc.hackint.eu/bytespeicher","contact_ml":"bytespeicher@lists.bytespeicher.org","contact_wiki":"","id":16,"lat":"50.98271","lng":"11.03965","name":"Bytespeicher","url":"https://technikkultur-erfurt.de"},{"address":"Raum 1.04.01, Haus B, Zentralwerk, Riesaer Str. 32, 01127 Dresden, Germany","contact_email":"mail@c3d2.de","contact_irc":"","contact_ml":"c3d2@lists.c3d2.de","contact_wiki":"","id":17,"lat":"51.0810791","lng":"13.7286123","name":"C3D2","url":"https://www.c3d2.de/"},{"address":"Chaos Computer Club Aachen e.V., Sch\u00fctzenstra\u00dfe 11, 52062 Aachen","contact_email":"mail@aachen.ccc.de","contact_irc":"ircs://irc.hackint.org/#cccac","contact_ml":"","contact_wiki":"","id":18,"lat":"50.771706","lng":"6.09148","name":"CCC Aachen","url":"https://aachen.ccc.de/"},{"address":"Birsfelderstrasse 6, 4132 Muttenz, Switzerland","contact_email":"chaos@ccc-basel.ch","contact_irc":"ircs://irc.chaostreff.ch:6601/#basel","contact_ml":"basel@chaostreff.ch","contact_wiki":"","id":19,"lat":"47.5323266","lng":"7.6342312","name":"Chaos Computer Club Basel","url":"https://ccc-basel.ch/"},{"address":"Chaos Computer Club Cologne (c4) e.V., Heliosstr. 6a, 50825 K\u00f6ln, Germany","contact_email":"mail@koeln.ccc.de","contact_irc":"ircs://irc.hackint.org/#cccc","contact_ml":"","contact_wiki":"","id":20,"lat":"50.9504142","lng":"6.9129647","name":"CCC Cologne","url":"https://koeln.ccc.de/"},{"address":"Wilhelminenstra\u00dfe 17, 64283 Darmstadt, Germany","contact_email":"info@chaos-darmstadt.de","contact_irc":"ircs://irc.hackint.org/chaos-darmstadt","contact_ml":"public@lists.darmstadt.ccc.de","contact_wiki":"","id":21,"lat":"49.870889","lng":"8.651222","name":"CCC Darmstadt","url":"https://www.chaos-darmstadt.de"},{"address":"Hohenstaufenstra\u00dfe 8, 60327 Frankfurt, Germany","contact_email":"noreply@ccc-ffm.de","contact_irc":"","contact_ml":"","contact_wiki":"","id":22,"lat":"50.10873","lng":"8.65656","name":"CCC Frankfurt","url":"https://ccc-ffm.de"},{"address":"Zeiseweg 9, 22765 Hamburg, Germany","contact_email":"mail@hamburg.ccc.de","contact_irc":"ircs://irc.hackint.org:6697/#ccchh","contact_ml":"talk@hamburg.ccc.de","contact_wiki":"","id":23,"lat":"53.55836","lng":"9.94459","name":"CCCHH","url":"https://hamburg.ccc.de/"},{"address":"CCC Mannheim e.V, Neckarauer Stra\u00dfe 106-116, 68163 Mannheim","contact_email":"info@ccc-mannheim.de","contact_irc":"","contact_ml":"default@lists.ccc-mannheim.de","contact_wiki":"","id":24,"lat":"49.46369","lng":"8.48862","name":"CCC Mannheim","url":"https://mannheim.ccc.de/"},{"address":"Adlerstr. 12a, 79098 Freiburg, Deutschland","contact_email":"","contact_irc":"","contact_ml":"ccc-fr@infra.de","contact_wiki":"","id":25,"lat":"47.993194","lng":"7.840502","name":"CCCFr","url":"https://cccfr.de"},{"address":"Rathausstrasse 6, 1010 Wien, Austria","contact_email":"contact@c3w.at","contact_irc":"","contact_ml":"","contact_wiki":"","id":26,"lat":"48.2093723","lng":"16.356099","name":"Chaos Computer Club Wien (C3W)","url":"https://c3w.at/"},{"address":"60 Victor Hugo Avenue, Luxembourg-Limpertsberg, L-1750, Luxembourg","contact_email":"info@c3l.lu","contact_irc":"","contact_ml":"chaosstuff@lists.c3l.lu","contact_wiki":"","id":27,"lat":"49.620709","lng":"6.122581","name":"ChaosStuff","url":"https://wiki.c3l.lu/doku.php?id=chaosstuff"},{"address":"Sonnenstr. 58, 40227 D\u00fcsseldorf, Germany","contact_email":"mail@chaosdorf.de","contact_irc":"irc://irc.oftc.net/chaosdorf","contact_ml":"","contact_wiki":"","id":28,"lat":"51.21261","lng":"6.79969","name":"Chaosdorf","url":"https://chaosdorf.de"},{"address":"Sibyllastr. 9, 45136 Essen, Germany","contact_email":"info@chaospott.de","contact_irc":"irc://irc.hackint.org/#chaospott","contact_ml":"discuss@lists.chaospott.de","contact_wiki":"","id":29,"lat":"51.438476","lng":"7.024991","name":"Chaospott","url":"https://chaospott.de"},{"address":"dasWohnzimmer, Willy-Brandt-Platz 2, 71522 Backnang, Germany","contact_email":"info@chaostreff-backnang.de","contact_irc":"","contact_ml":"","contact_wiki":"","id":30,"lat":"48.94862","lng":"9.42957","name":"Chaostreff Backnang","url":"https://chaostreff-backnang.de"},{"address":"Zwyssigstrasse 45, 3007 Bern, Switzerland","contact_email":"info@chaostreffbern.ch","contact_irc":"","contact_ml":"bern@chaostreff.ch","contact_wiki":"","id":31,"lat":"46.944178","lng":"7.421927","name":"Chaostreff Bern","url":"https://www.chaostreffbern.ch"},{"address":"Augustusburger Str. 102, 09126 Chemnitz, Germany","contact_email":"","contact_irc":"","contact_ml":"kontakt@chaoschemnitz.de","contact_wiki":"","id":32,"lat":"50.830659","lng":"12.939537","name":"Chaostreff Chemnitz","url":"https://chaoschemnitz.de"},{"address":"Braunschweiger Str 22, 44145 Dortmund, Germany","contact_email":"","contact_irc":"irc://irc.hackint.eu/#ccc.do","contact_ml":"discuss@lists.chaostreff-dortmund.de","contact_wiki":"","id":33,"lat":"51.527611","lng":"7.4649449","name":"Chaostreff Dortmund","url":"https://www.chaostreff-dortmund.de/"},{"address":"Apenrader Str. 49, 24939 Flensburg","contact_email":"mail@c3fl.de","contact_irc":"","contact_ml":"","contact_wiki":"","id":34,"lat":"54.8045778","lng":"9.4224836","name":"Chaos Computer Club Flensburg","url":"https://c3fl.de"},{"address":"Akademiehof 10, 71638 Ludwigsburg, Germany","contact_email":"chaostreff@complb.de","contact_irc":"","contact_ml":"","contact_wiki":"","id":35,"lat":"48.893","lng":"9.192","name":"Chaostreff Ludwigsburg","url":"https://complb.de"},{"address":"machBar, freiLand - Haus 5, Friedrich-Engels-Str. 22, 14473 Potsdam, Germany","contact_email":"","contact_irc":"","contact_ml":"treff@ccc-p.org","contact_wiki":"","id":36,"lat":"52.389424","lng":"13.078555","name":"Chaostreff Potsdam (CCCP)","url":"https://www.ccc-p.org/"},{"address":"Westcharweg 101, 45659 Recklinghausen","contact_email":"kontakt@c3RE.de","contact_irc":"","contact_ml":"","contact_wiki":"","id":37,"lat":"51.62435592244","lng":"7.1690101828426","name":"c3RE e.V. - Chaostreff Recklinghausen","url":"https://c3re.de"},{"address":"Chaos Computer Club Z\u00fcrich, \u2105 Verein Bitw\u00e4scherei, Neue Hard 12, CH-8005 Z\u00fcrich, Switzerland","contact_email":"vorstand@ccczh.ch","contact_irc":"ircs://irc.chaostreff.ch:6601/#ccczh","contact_ml":"zuerich@chaostreff.ch","contact_wiki":"","id":38,"lat":"47.38698","lng":"8.52017","name":"Chaos Computer Club Z\u00fcrich","url":"https://www.ccczh.ch/"},{"address":"Space","contact_email":"chaoszone@eigenbaukombinat.de","contact_irc":"","contact_ml":"","contact_wiki":"","id":39,"lat":"36.5516","lng":"-159.6696","name":"ChaosZone","url":"https://chaoszone.cz"},{"address":"Computer Deconstruction Lab, Building 9059, 2201 Marconi Road, Wall Township, N.J. 07719, USA","contact_email":"info@compdecon.org","contact_irc":"","contact_ml":"cdl@groups.io","contact_wiki":"","id":40,"lat":"40.18652189759892","lng":"-74.06013028703497","name":"CDL - Computer Deconstruction Lab","url":"https://compdecon.github.io/"},{"address":"Lenzikon 32B, 8732 Neuhaus, Switzerland","contact_email":"vorstand@lists.coredump.ch","contact_irc":"irc://irc.libera.chat/#coredump","contact_ml":"","contact_wiki":"","id":41,"lat":"47.2251","lng":"8.8339","name":"coredump","url":"https://www.coredump.ch/"},{"address":"Alleestrasse 50, 44793 Bochum, Germany","contact_email":"","contact_irc":"","contact_ml":"discuss@lists.das-labor.org","contact_wiki":"","id":42,"lat":"51.4806253","lng":"7.2065778","name":"das Labor e.V.","url":"https://das-labor.org"},{"address":"Hofgasse 19, 4020 Linz, Austria","contact_email":"","contact_irc":"ircs://irc.servus.at:6667/devlol","contact_ml":"devlol-orga@lists.servus.at","contact_wiki":"","id":43,"lat":"48.30573","lng":"14.28383","name":"DevLoL","url":"https://devlol.org"},{"address":"Eisenbahnstr. 9, 04315 Leipzig","contact_email":"vorstand@dezentrale.space","contact_irc":"","contact_ml":"","contact_wiki":"","id":44,"lat":"51.3464008","lng":"12.396221","name":"dezentrale","url":"https://dezentrale.space"},{"address":"Hawkwell Pavilion, Park Gardens, Hockley, SS5 4HF, United Kingdom","contact_email":"","contact_irc":"","contact_ml":"","contact_wiki":"","id":45,"lat":"51.596974","lng":"0.672686","name":"East Essex Hackspace","url":"https://eehack.space"},{"address":"1 Summerhall, Edinburgh, EH9 1PL, United Kingdom","contact_email":"info@edinburghhacklab.com","contact_irc":"ircs://irc.libera.chat/#edinhacklab","contact_ml":"","contact_wiki":"","id":46,"lat":"55.939797","lng":"-3.18162","name":"Edinburgh Hacklab","url":"https://edinburghhacklab.com/"},{"address":"Landsberger Stra\u00dfe 3, 06112 Halle (Saale), Germany","contact_email":"kontakt@eigenbaukombinat.de","contact_irc":"","contact_ml":"","contact_wiki":"","id":47,"lat":"51.47996","lng":"11.99221","name":"Eigenbaukombinat Halle e.V.","url":"https://eigenbaukombinat.de"},{"address":"Entropia e.V., Gewerbehof, Steinstra\u00dfe 23, 76133 Karlsruhe, Germany","contact_email":"info@entropia.de","contact_irc":"irc://irc.hackint.eu/#entropia","contact_ml":"news@list.entropia.de","contact_wiki":"","id":48,"lat":"49.0067","lng":"8.407438","name":"Entropia","url":"https://entropia.de/"},{"address":"1 Weavers Court, Linfield Industrial Estate, Belfast, BT125GH, UK","contact_email":"info@farsetlabs.org.uk","contact_irc":"irc://irc.freenode.net/#farsetlabs","contact_ml":"","contact_wiki":"","id":49,"lat":"54.592813","lng":"-5.94068","name":"Farset Labs","url":"https://www.farsetlabs.org.uk"},{"address":"Raum U1.239\nErwin-Rommel-Stra\u00dfe 60\n91058 Erlangen\nGermany","contact_email":"","contact_irc":"","contact_ml":"fablab-aktive@fablab.fau.de","contact_wiki":"","id":50,"lat":"49.574","lng":"11.03","name":"FAU FabLab","url":"https://fablab.fau.de/"},{"address":"Chemin du Closel 3, 1020 Renens, Switzerland","contact_email":"info@fixme.ch","contact_irc":"irc://freenode/#fixme","contact_ml":"hackerspace-lausanne@lists.saitis.net","contact_wiki":"https://wiki.fixme.ch","id":51,"lat":"46.532372","lng":"6.591292","name":"FIXME","url":"https://fixme.ch"},{"address":"87435 Kempten, Germany","contact_email":"info@fablab-allgaeu.de","contact_irc":"","contact_ml":"http://lists.fablab-allgaeu.de/cgi-bin/mailman/listinfo","contact_wiki":"","id":52,"lat":"47.725","lng":"10.321","name":"FabLab Allg\u00e4u","url":"https://fablab-allgaeu.de"},{"address":"Alter Schlachthof 25a, 76131 Karlsruhe, Germany","contact_email":"labinfo@fablab-karlsruhe.de","contact_irc":"","contact_ml":"","contact_wiki":"","id":53,"lat":"49.004452253610175","lng":"8.429180916835117","name":"FabLab Karlsruhe e.V.","url":"https://fablab-karlsruhe.de/"},{"address":"Fab Lab N\u00fcrnberg e.V., Schwabacher Str. 512, 90763 F\u00fcrth, Germany","contact_email":"","contact_irc":"irc://chat.freenode.net/#fln","contact_ml":"","contact_wiki":"","id":54,"lat":"49.437651","lng":"10.992536","name":"FabLab N\u00fcrnberg","url":"http://fablab-nuernberg.de/"},{"address":"Am Seitenkanal 8b, 49811 Lingen, Germany","contact_email":"info@futev.de","contact_irc":"","contact_ml":"","contact_wiki":"","id":55,"lat":"52.485936","lng":"7.333012","name":"Forschung und Technik e.V.","url":"https://forschungundtechnikev.de"},{"address":"Blokhuisplein 40, 8911 LJ, Leeuwarden, The Netherlands","contact_email":"info@frack.nl","contact_irc":"irc://irc.eth-0.nl/#frack","contact_ml":"general@frack.nl","contact_wiki":"","id":56,"lat":"53.1997015","lng":"5.8005792","name":"Frack","url":"https://frack.nl"},{"address":"Borsigstr. 6, 31135 Hildesheim, Germany","contact_email":"kontakt@freieslabor.org","contact_irc":"","contact_ml":"freieslabor@freieslabor.org","contact_wiki":"","id":57,"lat":"52.16893525221396","lng":"9.978310776453897","name":"Freies Labor","url":"https://freieslabor.org"},{"address":"57A Railway St, Mudgeeraba QLD 4213, Australia","contact_email":"manager@gctechspace.org","contact_irc":"","contact_ml":"","contact_wiki":"","id":58,"lat":"153.36456032145182","lng":"-28.07861211995512","name":"Gold Coast TechSpace Inc.","url":"https://gctechspace.org/"},{"address":"Sofiendalsvej 80, 9000 Aalborg, Denmark","contact_email":"bestyrelse@hal9k.dk","contact_irc":"","contact_ml":"","contact_wiki":"","id":59,"lat":"57.0187","lng":"9.882","name":"Halk","url":"https://hal9k.dk"},{"address":"B\u00e1stya u. 12., 1056 Budapest, Hungary","contact_email":"hack@hsbp.org","contact_irc":"irc://irc.atw-inter.net/hspbp","contact_ml":"hspbp@googlegroups.com","contact_wiki":"","id":60,"lat":"47.489167","lng":"19.059444","name":"H.A.C.K.","url":"https://hsbp.org"},{"address":"221c MacArthur Ave, Eagle Farm QLD 4009","contact_email":"contact@hsbne.org","contact_irc":"","contact_ml":"","contact_wiki":"","id":61,"lat":"0","lng":"153","name":"HSBNE Inc.","url":"https://hsbne.org"},{"address":"34 West 37th Street 2nd floor rear, New York, NY 10018, United States","contact_email":"info@hackmanhattan.com","contact_irc":"","contact_ml":"","contact_wiki":"","id":62,"lat":"40.7510781","lng":"-73.9859118","name":"Hack Manhattan","url":"https://hackmanhattan.com/"},{"address":"Cruquiusweg 3, 6827BL Arnhem, Nederland","contact_email":"info@hack42.nl","contact_irc":"irc://irc.oftc.net/#hack42","contact_ml":"hack42@lists.hack42.nl","contact_wiki":"","id":63,"lat":"51.97708","lng":"5.94022","name":"Hack42","url":"https://hack42.nl/"},{"address":"Fransebaan 93, 5627 JP Eindhoven, The Netherlands","contact_email":"bestuur@hackalot.nl","contact_irc":"ircs://irc.libera.chat:6697/hackalot","contact_ml":"hackalot@lijst.hackalot.nl","contact_wiki":"","id":64,"lat":"51.4842127","lng":"5.4494473","name":"Hackalot","url":"https://hackalot.nl/"},{"address":"Pushkina str. 38/18, Yerevan, Armenia","contact_email":"hacker.embassy@proton.me","contact_irc":"","contact_ml":"","contact_wiki":"","id":65,"lat":"40.18258","lng":"44.51338","name":"Hacker Embassy","url":"https://hackem.cc/"},{"address":"Hausmania, Hausmannsgate 34, 0182 Oslo, Norway","contact_email":"styret@__SOPPELPOST__hackeriet.no","contact_irc":"irc://irc.libera.chat/#oslohackerspace","contact_ml":"","contact_wiki":"","id":66,"lat":"59.919293","lng":"10.753475","name":"Hackeriet","url":"https://hackeriet.no"},{"address":"Blomestrasse 27, 33609 Bielefeld, Germany","contact_email":"vorstand@hackerspace-bielefeld.de","contact_irc":"","contact_ml":"public@hackerspace-bielefeld.de","contact_wiki":"","id":67,"lat":"52.036938093117","lng":"8.569233958072","name":"Hackerspace Bielefeld e.V.","url":"https://hackerspace-bielefeld.de"},{"address":"","contact_email":"info@hackerspace-bremen.de","contact_irc":"","contact_ml":"","contact_wiki":"","id":68,"lat":null,"lng":null,"name":"Hackerspace Bremen e.V.","url":"http://www.hackerspace-bremen.de"},{"address":"Rue Osseghem 53 (Lion City), 1080 Bruxelles, BELGIUM","contact_email":"contact@hsbxl.be","contact_irc":"","contact_ml":"","contact_wiki":"","id":69,"lat":"50.8553336","lng":"4.3202945","name":"HSBXL","url":"https://hsbxl.be"},{"address":"Van Heekerenlaan 2, 7742 AB Coevorden, Netherlands, Entrance: graaf van Helden Reinesteinlaan / Fablab","contact_email":"bestuur AT hackerspace-drenthe.nl","contact_irc":"","contact_ml":"","contact_wiki":"","id":70,"lat":"52.6596375","lng":"6.754659","name":"Hackerspace Drenthe","url":"https://hackerspace-drenthe.nl"},{"address":"Eerste Bokslootweg 1, Emmen","contact_email":"bestuur AT hackerspace-drenthe.nl","contact_irc":"","contact_ml":"","contact_wiki":"","id":71,"lat":"52.776987","lng":"6.907518","name":"Hackerspace Drenthe (Emmmen)","url":"https://hackerspace-drenthe.nl"},{"address":"Wiedauwkaai 51, 9032 Gent, Belgium","contact_email":"info@hackerspace.gent","contact_irc":"","contact_ml":"ghent@discuss.hackerspaces.be","contact_wiki":"","id":72,"lat":"51.07478","lng":"3.72446","name":"Hackerspace.Gent","url":"https://hackerspace.gent"},{"address":"Villanovastraat 4, 6542 JA, Nijmegen, The Netherlands","contact_email":"info@hackerspacenijmegen.nl","contact_irc":"irc://Libera/#hsnijmegen","contact_ml":"","contact_wiki":"","id":73,"lat":"51.83753","lng":"5.84466","name":"Hackerspace Nijmegen","url":"http://hackerspacenijmegen.nl"},{"address":"Ampatielou 11, 11144 Athens, Greece","contact_email":"","contact_irc":"irc://chat.freenode.net/#hsgr","contact_ml":"discuss@hackerspace.gr","contact_wiki":"","id":74,"lat":"38.01695","lng":"23.73124","name":"Hackerspace.gr","url":"https://www.hackerspace.gr"},{"address":"al. Wojska Polskiego 41, 80-268 Gda\u0144sk, Poland","contact_email":"kontakt@hs3.pl","contact_irc":"","contact_ml":"","contact_wiki":"","id":75,"lat":"54.38976656812341","lng":"18.581582307815555","name":"Hackerspace Tr\u00f3jmiasto","url":"https://hs3.pl/"},{"address":"Hagenower Str. 73, 19061 Schwerin, Germany","contact_email":"inbox@hacklabor.de","contact_irc":"","contact_ml":"","contact_wiki":"","id":76,"lat":"53.6011","lng":"11.4183","name":"Hacklabor","url":"http://hacklabor.de"},{"address":"Rathausstra\u00dfe 18, 66125 Saarbr\u00fccken, Germany","contact_email":"vorstand@hacksaar.de","contact_irc":"","contact_ml":"public@lists.hacksaar.de","contact_wiki":"","id":77,"lat":"49.2793","lng":"7.035725","name":"Hacksaar","url":"https://www.hacksaar.de"},{"address":"Effertsufer 104, 57072 Siegen, Germany","contact_email":"kontakt@ha.si","contact_irc":"","contact_ml":"","contact_wiki":"","id":78,"lat":"50.86904","lng":"8.00464","name":"HaSi e.V.","url":"https://ha.si"},{"address":"Zielona 30 l.u. 3, \u0141\u00f3d\u017a, Poland","contact_email":"kontakt [ ^ AT ^ ] hakierspejs.pl","contact_irc":"irc://irc.libera.chat/hakierspejs","contact_ml":"","contact_wiki":"","id":79,"lat":"51.76924","lng":"19.4452769","name":"Hakierspejs \u0141\u00f3d\u017a","url":"https://lodz.hackerspace.pl"},{"address":"Blarerstra\u00dfe 56, 78462 Konstanz, Germany","contact_email":"info@hacknology.de","contact_irc":"","contact_ml":"public@lists.hacknology.de","contact_wiki":"","id":80,"lat":"47.65942","lng":"9.16594","name":"hacKNology e.V.","url":"https://www.hacknology.de"},{"address":"Kurf\u00fcrstendamm 1, 56626 Andernach, Germany","contact_email":"kontakt@haxko.space","contact_irc":"ircs://irc.hackint.org:6697/#haxko","contact_ml":"","contact_wiki":"","id":81,"lat":"50.4345","lng":"7.4045","name":"haxko","url":"https://haxko.space/"},{"address":"","contact_email":"","contact_irc":"irc://irc.freenode.net/#heatsynclabs","contact_ml":"http://groups.google.com/group/heatsynclabs","contact_wiki":"","id":82,"lat":null,"lng":null,"name":"HeatSync Labs","url":"http://www.heatsynclabs.org"},{"address":"Inffeldgasse 10, 8010 Graz, Austria","contact_email":"elab@htu.tugraz.at","contact_irc":"","contact_ml":"","contact_wiki":"","id":83,"lat":"47.05834","lng":"15.459288","name":"HTU Graz - E-Lab","url":"https://elab.htu.tugraz.at"},{"address":"Wilhelmstrasse 239, 49479 Ibbenbueren, Germany","contact_email":"ibbspace@fstl-ibb.de","contact_irc":"","contact_ml":"","contact_wiki":"","id":84,"lat":"52.269986747852855","lng":"7.7421172141685695","name":"ibb_space","url":"https://ibbspace.org"},{"address":"Tschamlerstrasse 3, 6020 Innsbruck, Austria","contact_email":"wir@it-syndikat.org","contact_irc":"ircs://libera.chat/#it-syndikat","contact_ml":"","contact_wiki":"","id":85,"lat":"47.257827","lng":"11.3961024","name":"IT-Syndikat","url":"https://it-syndikat.org/"},{"address":"Koenigstra\u00dfe 93, 90402 Nuernberg","contact_email":"info@k4cg.org","contact_irc":"","contact_ml":"k4cg@k4cg.org","contact_wiki":"","id":86,"lat":"49.4487901","lng":"11.0819743","name":"K4CG","url":"https://k4cg.org"},{"address":"Potterijstraat 5, 2800 Mechelen, Belgium","contact_email":"info@ko-lab.space","contact_irc":"","contact_ml":"","contact_wiki":"","id":87,"lat":"51.02204","lng":"4.4828","name":"Ko-Lab Mechelen","url":"https://ko-lab.space/"},{"address":"Hackspace Jena e. V., Krautgasse 26, 07743 Jena, Germany","contact_email":"office@kraut.space","contact_irc":"","contact_ml":"","contact_wiki":"","id":88,"lat":"50.9292","lng":"11.5826","name":"Krautspace \u2013 Hackspace Jena e.V.","url":"https://kraut.space"},{"address":"Eerste Schinkelstraat 16, 1075 TX Amsterdam, The Netherlands","contact_email":"info@laglab.org","contact_irc":"irc://irc.indymedia.nl/#lag","contact_ml":"","contact_wiki":"","id":89,"lat":"52.35406","lng":"4.85423","name":"LAG","url":"http://laglab.org"},{"address":"Rua Ararib\u00f3ia, 121 - Campinas - SP, Brazil","contact_email":"contato@lhc.net.br","contact_irc":"","contact_ml":"","contact_wiki":"","id":90,"lat":"-22.9177931","lng":"-47.0550707","name":"Laboratorio Hacker de Campinas","url":"https://lhc.net.br"},{"address":"LeineLab, H\u00fcttenstra\u00dfe 22B, 30165 Hannover","contact_email":"anfragen@leinelab.org","contact_irc":"","contact_ml":"hspace@lists.leinelab.org","contact_wiki":"","id":91,"lat":"52.39314","lng":"9.72285","name":"LeineLab","url":"https://leinelab.org"},{"address":"87, route de Thionville, L-2611 Bonnevoie, Luxembourg","contact_email":"info@syn2cat.lu","contact_irc":"","contact_ml":"syn2cat-discuss@lists.hackerspace.lu","contact_wiki":"","id":92,"lat":"49.591595","lng":"6.14051","name":"Level2","url":"https://level2.lu"},{"address":"Luxemburger Ring 8, 66740 Saarlouis, Germany","contact_email":"info@lug-saar.de","contact_irc":"","contact_ml":"","contact_wiki":"","id":93,"lat":"49.31327","lng":"6.7469","name":"Linux User Group Saar e.V.","url":"https://lugsaar.de/"},{"address":"41\u201343 Standard Road, The Republic of Park Royal, Ealing, NW10 6HF","contact_email":"contact@london.hackspace.org.uk","contact_irc":"ircs://chat.freenode.net/london-hack-space","contact_ml":"london-hack-space@googlegroups.com","contact_wiki":"","id":94,"lat":"51.5277","lng":"-0.2642","name":"London Hackspace","url":"https://london.hackspace.org.uk"},{"address":"Ebikonerstrasse 75, CH-6043 Adligenswil, Switzerland","contact_email":"zimmermann.anja@outlook.com","contact_irc":"irc://irc.libera.chat/luxeria","contact_ml":"","contact_wiki":"","id":95,"lat":"47.073","lng":"8.357","name":"LuXeria","url":"https://luxeria.ch/"},{"address":"Maakplek, Struisvogelstraat 15, 9713 BT, Groningen, The Netherlands","contact_email":"welkom@maakplek.nl","contact_irc":"","contact_ml":"","contact_wiki":"","id":96,"lat":"53.231056","lng":"6.58389","name":"Maakplek","url":"https://www.maakplek.nl"},{"address":"Bahnhofsplatz 10, 26122 Oldenburg, Germany","contact_email":"vorstand@kreativitaet-trifft-technik.de","contact_irc":"","contact_ml":"https://mailman.ktt-ol.de/postorius/lists/diskussion.lists.ktt-ol.de/","contact_wiki":"","id":97,"lat":"53.14402","lng":"8.21988","name":"Mainframe","url":"https://mainframe.io/"},{"address":"Calle Ruiz Palacios 7, 28039 Madrid, Spain","contact_email":"info@makespacemadrid.org","contact_irc":"","contact_ml":"","contact_wiki":"","id":98,"lat":"40.46171","lng":"-3.70434","name":"MakeSpace Madrid","url":"https://makespacemadrid.org"},{"address":"","contact_email":"contact@makerslocal.org","contact_irc":"irc://chat.freenode.net/#makerslocal","contact_ml":"http://lists.makerslocal.org/","contact_wiki":"","id":99,"lat":null,"lng":null,"name":"Makers Local 256","url":"https://256.makerslocal.org"},{"address":"","contact_email":"info@zigerschlitzmakers.ch","contact_irc":"","contact_ml":"","contact_wiki":"","id":100,"lat":"47.0988111","lng":"9.0698778","name":"Makers im Zigerschlitz","url":"https://zigerschlitzmakers.ch"},{"address":"Buessleber Gasse 1, 99084 Erfurt, Germany","contact_email":"kontakt@technikkultur-erfurt.de","contact_irc":"","contact_ml":"","contact_wiki":"","id":101,"lat":"50.973251","lng":"11.036885","name":"Makerspace Erfurt","url":"https://makerspace-erfurt.de"},{"address":"Bogenstrasse 1-8, 33330 Guetersloh, Germany","contact_email":"info@makerspace-gt.de","contact_irc":"","contact_ml":"","contact_wiki":"","id":102,"lat":"51.9021432","lng":"8.3750429","name":"makerspace-gt","url":"https://makerspace-gt.de"},{"address":"Volmolengracht 13, 2312 PG Leiden","contact_email":"bestuur@makerspaceleiden.nl","contact_irc":"","contact_ml":"","contact_wiki":"","id":103,"lat":"52.16270661099023","lng":"4.493948742846493","name":"Makerspace Leiden","url":"https://makerspaceleiden.nl/"},{"address":"Maker Space, c/o Orbis Community, Ground Floor, 65 High Street, Gateshead, NE8 2AP","contact_email":"","contact_irc":"","contact_ml":"north-east-makers@googlegroups.com","contact_wiki":"","id":104,"lat":"54.9652","lng":"-1.60233","name":"Maker Space","url":"https://www.makerspace.org.uk/"},{"address":"Eurener Stra\u00dfe 48Z, 54294 Trier, Germany","contact_email":"kontakt@maschinendeck.org","contact_irc":"irc://irc.libera.chat/maschinendeck","contact_ml":"public-subscribe@maschinendeck.org","contact_wiki":"","id":105,"lat":"49.75014","lng":"6.61661","name":"Maschinendeck","url":"https://maschinendeck.org"},{"address":"Geb\u00e4ude 64, Ratzeburger Allee 160, 23562 L\u00fcbeck, Germany","contact_email":"metameute@asta.uni-luebeck.de","contact_irc":"","contact_ml":"","contact_wiki":"","id":106,"lat":"53.83379316748737","lng":"10.704296399131595","name":"metameute","url":"https://www.metameute.de"},{"address":"30 Burners Lane, Kiln Farm, Milton Keynes MK11 3HB","contact_email":"","contact_irc":"","contact_ml":"https://groups.google.com/g/milton-keynes-makerspace","contact_wiki":"","id":107,"lat":"52.041439","lng":"-0.76056","name":"Milton Keynes Makerspace","url":"https://mkmakerspace.co.uk"},{"address":"2555 South Lenox Street, Milwaukee, WI 53207, USA","contact_email":"info@milwaukeemakerspace.org","contact_irc":"","contact_ml":"milwaukeemakerspace@googlegroups.com","contact_wiki":"","id":108,"lat":"42.998085","lng":"-87.898484","name":"Milwaukee Makerspace","url":"http://milwaukeemakerspace.org"},{"address":"Basement near the entrance 3, vul. Biady 45, Minsk, Belarus","contact_email":"info@hackerspace.by","contact_irc":"irc://irc.bynets.org/#hackerspace","contact_ml":"hackerspace-minsk@googlegroups.com","contact_wiki":"","id":109,"lat":"53.94287","lng":"27.59749","name":"Minsk Hackerspace","url":"https://hackerspace.by"},{"address":"He\u00dfstrasse 90, M\u00fcnchen, Germany","contact_email":"info@muc.ccc.de","contact_irc":"ircs://irc.hackint.org/#muccc","contact_ml":"talk@lists.muc.ccc.de","contact_wiki":"","id":110,"lat":"48.15367","lng":"11.56078","name":"MuCCC","url":"https://muc.ccc.de"},{"address":"Dachauer Str. 112h, 80636 M\u00fcnchen, Germany","contact_email":"info@munichmakerlab.de","contact_irc":"irc://irc.hackint.eu/munichmakerlab","contact_ml":"discuss@munichmakerlab.de","contact_wiki":"","id":111,"lat":"48.158752","lng":"11.5482333","name":"Munich Maker Lab","url":"https://munichmakerlab.de/"},{"address":"An der Salzstra\u00dfe 13-15, 07551 Gera, Germany","contact_email":"namespace@buergernetz-gera-greiz.de","contact_irc":"","contact_ml":"","contact_wiki":"","id":112,"lat":"50.836953","lng":"12.078655","name":"<name>space","url":"https://www.buergernetz-gera-greiz.de/namespace"},{"address":"Vergersweg 22-24, 6707 HT Wageningen, The Netherlands","contact_email":"","contact_irc":"irc://irc.oftc.net/#nurds","contact_ml":"nurds@nurdspace.nl","contact_wiki":"","id":113,"lat":"51.973273","lng":"5.669681","name":"NURDspace","url":"https://nurdspace.nl/"},{"address":"Veitsh\u00f6chheimer Str. 14, 97080 W\u00fcrzburg, Germany","contact_email":"info@nerd2nerd.org","contact_irc":"irc://irc.nerd2nerd.org:6697/#geeks","contact_ml":"nerd2nerd@nerd2nerd.org","contact_wiki":"","id":114,"lat":"49.801806","lng":"9.923105","name":"Nerd2Nerd","url":"http://www.nerd2nerd.org"},{"address":"Jakobinenstra\u00dfe 26, 90762 Fuerth, Germany","contact_email":"vorstand@lists.nerdberg.de","contact_irc":"irc://irc.hackint.org/nerdberg","contact_ml":"freunde@lists.nerdberg.de","contact_wiki":"","id":115,"lat":"49.47048","lng":"11.0033","name":"Nerdberg","url":"https://www.nerdberg.de"},{"address":"Unit F6 Roden House, Roden Street, Nottingham, NG3 1JH, ","contact_email":"","contact_irc":"ircs://irc.libera.chat:6697/#nottinghack","contact_ml":"nottinghack@googlegroups.com","contact_wiki":"","id":116,"lat":"52.9557","lng":"-1.135","name":"Nottinghack","url":"https://nottinghack.org.uk"},{"address":"Hardmorgenweg 21, 8222 Beringen, Switzerland","contact_email":"mail@odenwilusenz.ch","contact_irc":"","contact_ml":"","contact_wiki":"","id":117,"lat":"47.695","lng":"8.58","name":"Odenwilusenz","url":"https://odenwilusenz.ch"},{"address":"ANX84, netcup colocation in the NorthC RZ, N\u00fcrnberg, Germany","contact_email":"spaceapi@\u00f8koyono.de","contact_irc":"","contact_ml":"","contact_wiki":"","id":118,"lat":"49.3895261","lng":"11.1764104","name":"\u00f8koyono","url":"https://okoyono.de/"},{"address":"Omega Verksted, O. S. Bragstads Plass 2G, 7034 Trondheim, Norway","contact_email":"omegav@omegav.no","contact_irc":"","contact_ml":"","contact_wiki":"","id":119,"lat":"63.41861","lng":"10.40196","name":"Omega Verksted","url":"https://omegav.no"},{"address":"Open Space Aarhus, Olof Palmes All\u00e9 11, 8200 Aarhus N, Denmark","contact_email":"info@osaa.dk","contact_irc":"","contact_ml":"openspaceaarhus@googlegroups.com","contact_wiki":"","id":120,"lat":"56.1860826","lng":"10.1871765","name":"Open Space Aarhus","url":"https://osaa.dk"},{"address":"B\u00e4ckergasse 32, 86150 Augsburg, Germany","contact_email":"kontakt@openlab-augsburg.de","contact_irc":"ircs://libera.chat/#augsburg","contact_ml":"alle@lists.openlab-augsburg.de","contact_wiki":"","id":121,"lat":"48.36263","lng":"10.90261","name":"OpenLab Augsburg","url":"https://openlab-augsburg.de"},{"address":"M\u00b2 Klaus, Treietstra\u00dfe 17, Klaus, Vorarlberg, Austria","contact_email":"info@open-lab.at","contact_irc":"","contact_ml":"","contact_wiki":"","id":122,"lat":"47.30509085141842","lng":"9.646033516048838","name":"Open-Lab Vorarlberg","url":"https://open-lab.at"},{"address":"Kim Il-sung University, 1001 P'y\u014fngyang, Democratic People's Republic of Korea","contact_email":"","contact_irc":"","contact_ml":"","contact_wiki":"","id":123,"lat":"39.058056","lng":"125.768333","name":"P'y\u014fngyang Hackerspace","url":"http://status.pyongyanghackerspace.org"},{"address":"12bis rue de Gex, 01210 Ferney-Voltaire, France","contact_email":"enquiries@panglosslabs.org","contact_irc":"","contact_ml":"","contact_wiki":"","id":124,"lat":"46.25947","lng":"6.107725","name":"Pangloss Labs #1","url":"https://panglosslabs.org"},{"address":"545 Aldo Ave #24, Santa Clara, CA 95054","contact_email":"info@pawprintprototyping.org","contact_irc":"","contact_ml":"","contact_wiki":"","id":125,"lat":"37.3857157","lng":"-121.9487247","name":"Pawprint Prototyping","url":"https://pawprintprototyping.org"},{"address":"8/16 Guthrie Street, Osborne Park, WA 6017","contact_email":"info@artifactory.org.au","contact_irc":"irc://freenode.net/#artifactory","contact_ml":"artifactory-core@googlegroups.com","contact_wiki":"","id":126,"lat":"-31.901846","lng":"115.810136","name":"Perth Artifactory","url":"http://artifactory.org.au/"},{"address":"Unit K14.1.01, Schiemond 20, 3024 EE Rotterdam","contact_email":"bestuur@pixelbar.nl","contact_irc":"irc.smurfnet.ch","contact_ml":"pixelbar@lists.pixelbar.nl","contact_wiki":"","id":127,"lat":"51.903083","lng":"4.449638","name":"Pixelbar","url":"https://pixelbar.nl"},{"address":"W\u00e4chterhaus, Innere Weberstra\u00dfe 16, 02763 Zittau, Germany, Europe, Planet Earth","contact_email":"werkraum@freiraumzittau.de","contact_irc":"","contact_ml":"https://lists.freiraumzittau.de/mailman/listinfo/hackerspace","contact_wiki":"","id":128,"lat":"50.8975","lng":"14.8044","name":"Polytechnischer Werkraum Zittau","url":"https://www.werkraum.space/"},{"address":"Do Studzienki 28, Gda\u0144sk, Poland","contact_email":"kontakt@pomorze.hackerspace.pl","contact_irc":"irc://irc.freenode.net/hsp.sh","contact_ml":"","contact_wiki":"","id":129,"lat":"54.37116","lng":"18.61124","name":"Hackerspace Pomorze","url":"https://hsp.sh"},{"address":"Hafenstra\u00dfe 20, 18439 Stralsund","contact_email":"info@port39.de","contact_irc":"","contact_ml":"","contact_wiki":"","id":130,"lat":"54.31239","lng":"13.10008","name":"Port39","url":"https://port39.de"},{"address":"Avenue de la Praille 36, 1227 Carouge, Switzerland","contact_email":"comite@posttenebraslab.ch","contact_irc":"irc://irc.freenode.net/#posttenebraslab","contact_ml":"ptl@posttenebraslab.ch","contact_wiki":"","id":131,"lat":"46.187134981155396","lng":"6.133659482002258","name":"Post Tenebras Lab","url":"https://www.posttenebraslab.ch"},{"address":"Sem S\u00e6lands vei 1, 7034 Trondheim, Norway","contact_email":"pvv@pvv.ntnu.no","contact_irc":"irc://irc.pvv.ntnu.no/pvv","contact_ml":"","contact_wiki":"","id":132,"lat":"63.4170226","lng":"10.4063852","name":"Programvareverkstedet","url":"https://www.pvv.ntnu.no/"},{"address":"RaumZeitLabor, Weinheimer Strasse 58-60, 68309 Mannheim, Germany","contact_email":"info@raumzeitlabor.de","contact_irc":"irc://irc.hackint.eu/#raumzeitlabor","contact_ml":"raumzeitlabor@raumzeitlabor.de","contact_wiki":"","id":133,"lat":"49.5073792","lng":"8.5206065","name":"RaumZeitLabor","url":"https://raumzeitlabor.de"},{"address":"Lundav\u00e4gen 12, 212 18 Malm\u00f6, Sweden","contact_email":"roots@recompile.se","contact_irc":"","contact_ml":"","contact_wiki":"","id":134,"lat":"55.6066452","lng":"13.0258658","name":"Recompile","url":"https://www.recompile.se/"},{"address":"Overgoo 1, 2266 JZ Leidschendam, The Netherlands","contact_email":"board@revspace.nl","contact_irc":"irc://libera.chat/#revspace","contact_ml":"","contact_wiki":"","id":135,"lat":"52.0777306","lng":"4.3901992","name":"RevSpace","url":"https://revspace.nl/"},{"address":"SFZ-Aalen, Aaccelerator, Blezingerstra\u00dfe 15, 73430 Aalen, Germany","contact_email":"info@aalen.space","contact_irc":"","contact_ml":"","contact_wiki":"","id":136,"lat":"48.854778","lng":"10.09053","name":"Hackwerk Aalen e.V.","url":"https://aalen.space/"},{"address":"Dorfstra\u00dfe 1, 63741 Aschaffenburg, Germany","contact_email":"kontakt@schaffenburg.org","contact_irc":"ircs://irc.hackint.org/#schaffenburg","contact_ml":"","contact_wiki":"","id":137,"lat":"49.98778","lng":"9.135833","name":"Schaffenburg","url":"https://www.schaffenburg.org"},{"address":"Segmentation Vault, Ludwig-Stoehr-Strasse 8, 3100 St. Poelten, Austria","contact_email":"info@segvault.space","contact_irc":"","contact_ml":"","contact_wiki":"","id":138,"lat":"48.20365","lng":"15.62016","name":"Segmentation Vault","url":"https://segvault.space"},{"address":"Sheffield Hackspace, Portland Works, Randall St, Highfield, Sheffield S2 4SJ","contact_email":"trustees@sheffieldhackspace.org.uk","contact_irc":"","contact_ml":"","contact_wiki":"","id":139,"lat":"53.369933","lng":"-1.473812","name":"Sheffield Hackspace","url":"https://www.sheffieldhackspace.org.uk"},{"address":"Unit F, Liners Industrial Estate, Southampton, SO15 3FQ, ","contact_email":"","contact_irc":"","contact_ml":"somakeit@googlegroups.com","contact_wiki":"","id":140,"lat":"52.9557","lng":"-1.135","name":"So Make It","url":"https://www.somakeit.org.uk"},{"address":"Drottning Kristinas v\u00e4g 53, 114 28 Stockholm, Sweden","contact_email":"info@makerspace.se","contact_irc":"","contact_ml":"","contact_wiki":"","id":141,"lat":"59.3505623","lng":"18.0676122","name":"Stockholm Makerspace","url":"https://makerspace.se"},{"address":"Takustr. 9, 14195 Berlin, Germany","contact_email":"spline@spline.de","contact_irc":"irc://irc.libera.chat/spline","contact_ml":"spline@lists.spline.de","contact_wiki":"","id":142,"lat":"52.456097","lng":"13.297432","name":"Spline","url":"https://spline.de"},{"address":"Hamburger Strasse 273a, Haus A2, 38114 Braunschweig, Germany","contact_email":"kontakt@stratum0.org","contact_irc":"ircs://irc.libera.net/#stratum0","contact_ml":"normalverteiler@stratum0.org","contact_wiki":"","id":143,"lat":"52.2785658","lng":"10.5211247","name":"Stratum 0","url":"https://stratum0.org"},{"address":"Westernmauer 12-16, 33098 Paderborn, Germany","contact_email":"mail@c3pb.de","contact_irc":"","contact_ml":"","contact_wiki":"","id":144,"lat":"51.71707","lng":"8.74752","name":"Subraum","url":"https://c3pb.de/"},{"address":"21/22 Park Street, Swansea, UK. SA1 3DJ","contact_email":"info@swansea.hackspace.org.uk","contact_irc":"","contact_ml":"hackspace@swansea.hackspace.org.uk","contact_wiki":"","id":145,"lat":"51.6202","lng":"-3.9461","name":"Swansea Hackspace","url":"http://swansea.hackspace.org.uk/"},{"address":"Begijnengang 2, 5911 JL, Venlo, The Netherlands","contact_email":"info@tdvenlo.nl","contact_irc":"","contact_ml":"","contact_wiki":"","id":146,"lat":"51.3694","lng":"6.16998","name":"TDvenlo","url":"https://www.tdvenlo.nl"},{"address":"Shoken 19, Tel Aviv, Israel","contact_email":"tami@tami.org.il","contact_irc":"","contact_ml":"","contact_wiki":"","id":147,"lat":"32.0525266","lng":"34.77233206","name":"TAMI","url":"https://telavivmakers.org"},{"address":"158 Aero Camino, Suite D Santa Barbara, CA 93117","contact_email":"","contact_irc":"","contact_ml":"","contact_wiki":"","id":148,"lat":"34.43237","lng":"-119.84842","name":"TechTonik Labs","url":"http://sbhackerspace.com"},{"address":"Louwesweg 1, room 1.29B, 1066 EA Amsterdam","contact_email":"hack AT techinc DOT nl","contact_irc":"#techinc @ OFTC","contact_ml":"members@techinc.nl","contact_wiki":"https://wiki.techinc.nl","id":149,"lat":"52.345558","lng":"4.826466","name":"Technologia Incognita","url":"https://www.techinc.nl"},{"address":"740 Oscar Ave, Madison, WI  53704","contact_email":"contact@thebodgery.org","contact_irc":"","contact_ml":"","contact_wiki":"","id":150,"lat":"-89.35572","lng":"43.10854","name":"The Bodgery","url":"https://www.thebodgery.org"},{"address":"B\u00e8taplein 28, 2321KS Leiden, The Netherlands","contact_email":"info@spaceleiden.nl","contact_irc":"","contact_ml":"","contact_wiki":"","id":151,"lat":"52.145807367875896","lng":"4.493707267634785","name":"The Space Leiden","url":"https://spaceleiden.nl/"},{"address":"Marssteden 98, 7547TD Enschede, The Netherlands","contact_email":"bestuur@tkkrlab.nl","contact_irc":"irc://irc.libera.chat:6697/tkkrlab","contact_ml":"","contact_wiki":"","id":152,"lat":"52.2163366","lng":"6.8205472","name":"TkkrLab","url":"https://tkkrlab.nl"},{"address":"Bergheimerstr. 6, 88677 Markdorf, Germany","contact_email":"contact@toolbox-bodensee.de","contact_irc":"","contact_ml":"","contact_wiki":"","id":153,"lat":"47.712","lng":"9.399","name":"Toolbox Bodensee e.V.","url":"https://toolbox-bodensee.de"},{"address":"Hochstra\u00dfe 10, 59425 Unna, Deutschland","contact_email":"info@un-hack-bar.de","contact_irc":"","contact_ml":"","contact_wiki":"","id":154,"lat":"51.53803424191252","lng":"7.673649787902833","name":"UN-Hack-Bar e.V.","url":"https://www.un-hack-bar.de"},{"address":"Fabriksgatan 8b, 90331 Ume\u00e5, Sweden","contact_email":"info@umeahackerspace.se","contact_irc":"irc://irc.hethane.se/uhck","contact_ml":"","contact_wiki":"","id":155,"lat":"63.82326","lng":"20.28208","name":"Ume\u00e5 Hackerspace","url":"https://umeahackerspace.se/"},{"address":"Av. Franklin Roosevelt 50, 1000 Brussels, Belgium - ULB: UB2.126","contact_email":"contact@urlab.be","contact_irc":"irc://irc.libera.chat#urlab","contact_ml":"hackulb@cerkinfo.be","contact_wiki":"","id":156,"lat":"50.8115138","lng":"4.3828331","name":"UrLab","url":"https://urlab.be"},{"address":"Herrystraat 22, 2100 Deurne (Antwerp), Belgium","contact_email":"voidwarranties@hacktheplanet.be","contact_irc":"","contact_ml":"","contact_wiki":"","id":157,"lat":"51.208683","lng":"4.453435","name":"VoidWarranties","url":"https://we.voidwarranties.be"},{"address":"warpzone e.V., Am Hawerkamp 31 Haus G, 48155 M\u00fcnster, Germany","contact_email":"verwaltung@warpzone.ms","contact_irc":"irc://hackint.org/#warpzone","contact_ml":"warpzone@warpzone.ms","contact_wiki":"","id":158,"lat":"51.9436176","lng":"7.6381682","name":"warpzone ","url":"https://www.warpzone.ms"},{"address":"ul. Wolno\u015b\u0107 2A, 01-018 Warszawa, Poland","contact_email":"","contact_irc":"irc://irc.libera.chat/#hswaw","contact_ml":"waw@lists.hackerspace.pl","contact_wiki":"","id":159,"lat":"52.2416","lng":"20.98485","name":"Warsaw Hackerspace","url":"https://hackerspace.pl"},{"address":"Rheinstra\u00dfe 96, Ransbach-Baumbach, Germany","contact_email":"vorstand@westwoodlabs.de","contact_irc":"ircs://irc.hackint.org:6697/westwoodlabs","contact_ml":"","contact_wiki":"","id":160,"lat":"50.46296","lng":"7.7248087","name":"Westwoodlabs","url":"https://westwoodlabs.de"},{"address":"Zeuskelder, gebouw S9, Krijgslaan 281, Ghent, Belgium","contact_email":"bestuur@zeus.ugent.be","contact_irc":"","contact_ml":"","contact_wiki":"","id":161,"lat":"51.0231119","lng":"3.7102741","name":"Zeus WPI","url":"https://zeus.ugent.be"},{"address":"[hsmr] Hackspace Marburg, Rudolf-Bultmann-Strasse 2b, 35039 Marburg, Germany","contact_email":"mail@hsmr.cc","contact_irc":"ircs://irc.hackint.org:6697/#hsmr","contact_ml":"public@lists.hsmr.cc","contact_wiki":"","id":162,"lat":"50.81615","lng":"8.77851","name":"[hsmr] Hackspace Marburg","url":"https://hsmr.cc/"},{"address":"Spiegelgraben 41, 96052 Bamberg, Bavaria, Germany","contact_email":"info@hackerspace-bamberg.de","contact_irc":"","contact_ml":"public@lists.hajjckerspace-bamberg.de","contact_wiki":"","id":163,"lat":"49.901897799096474","lng":"10.892705619335176","name":"backspace","url":"https://www.hackerspace-bamberg.de"},{"address":"","contact_email":"","contact_irc":"irc://freenode/#base48","contact_ml":"public@lists.base48.cz","contact_wiki":"","id":164,"lat":null,"lng":null,"name":"base48","url":"http://base48.cz/"},{"address":"Pod Kapli\u010dkou 3149/18, 13000 Praha 3","contact_email":"","contact_irc":"irc://irc.libera.chat/#brmlab","contact_ml":"brmlab@brmlab.cz","contact_wiki":"","id":165,"lat":"50.08346","lng":"14.48032","name":"Brmlab","url":"https://brmlab.cz/"},{"address":"Proviantstra\u00dfe 12a, 85049 Ingolstadt, Germany","contact_email":"","contact_irc":"irc://irc.libera.chat/#bytewerk","contact_ml":"public@bingo-ev.de","contact_wiki":"","id":166,"lat":"48.76669","lng":"11.42594","name":"bytewerk","url":"https://bytewerk.org"},{"address":"Rungestr. 20, 2. Hinterhof, 10179 Berlin, Germany","contact_email":"info@c-base.org","contact_irc":"ircs://irc.hackint.org/#c-base","contact_ml":"","contact_wiki":"","id":167,"lat":"52.512363","lng":"13.419752","name":"c-base","url":"http://www.c-base.org"},{"address":"K\u00f6rnerstr. 72, 41464 Neuss, Germany","contact_email":"verein@fnordeingang.de","contact_irc":"","contact_ml":"","contact_wiki":"","id":168,"lat":"51.186234","lng":"6.692624","name":"fNordeingang","url":"https://fnordeingang.de/"},{"address":"Schillerstra\u00dfe 25, 34117 Kassel","contact_email":"com@flipdot.org","contact_irc":"irc://irc.libera.chat/#flipdot","contact_ml":"","contact_wiki":"","id":169,"lat":"51.320859320256616","lng":"9.495142012928502","name":"flipdot","url":"https://flipdot.org"},{"address":"Heiligkreuzstr. 3 - 96450 Coburg, Germany","contact_email":"info@hackzogtum-coburg.de","contact_irc":"irc://irc.freenode.net/hackzogtumCoburg","contact_ml":"talk@chaostreff-coburg.de","contact_wiki":"","id":170,"lat":"50.26315","lng":"10.96611","name":"hackzogtum","url":"https://hackzogtum-coburg.de"},{"address":"1481-A Wordsworth St, Ferndale, MI 48083, USA","contact_email":"contact@i3detroit.org","contact_irc":"libera.chat/#i3detroit","contact_ml":"https://groups.google.com/forum/#!forum/i3detroit-public","contact_wiki":"","id":171,"lat":"42.45375036492542","lng":"-83.11390310525896","name":"i3Detroit","url":"https://www.i3detroit.org"},{"address":"floor 3, 64A, Tsar Asen Str., Sofia, Bulgaria","contact_email":"","contact_irc":"irc://irc.ludost.net/#initlab","contact_ml":"yo@initlab.org","contact_wiki":"","id":172,"lat":"42.68795","lng":"23.31691","name":"init Lab","url":"https://initlab.org"},{"address":"Lindenstra\u00c3\u009fe 14, 36037 Fulda, Germany","contact_email":"","contact_irc":"irc://irc.hackint.org/#mag.lab","contact_ml":"mag.lab@lists.open-mail.net","contact_wiki":"","id":173,"lat":"50.55239","lng":"9.68076","name":"mag.lab","url":"https://maglab.space"},{"address":"Fackenburger Allee 11, 23554 Luebeck, Germany","contact_email":"info+spaceapi@chaotikum.org","contact_irc":"","contact_ml":"info@chaotikum.org","contact_wiki":"","id":174,"lat":"53.8688","lng":"10.6712","name":"nbsp","url":"http://chaotikum.org"},{"address":"Brockmanngasse 15, 8010 Graz, Austria","contact_email":"vorstand@realraum.at","contact_irc":"irc://irc.oftc.net/#realraum","contact_ml":"realraum@realraum.at","contact_wiki":"","id":175,"lat":"47.065554","lng":"15.450435","name":"realraum","url":"https://realraum.at"},{"address":"Rengoldshauserstr., 88662 Ueberlingen, Germany","contact_email":"kommunikation@see-base.de","contact_irc":"","contact_ml":"","contact_wiki":"","id":176,"lat":"47.77252","lng":"9.19997","name":"see-base","url":"https://see-base.de"},{"address":"Hauptstra\u00dfe 1, 77652 Offenburg, Germany","contact_email":"info@section77.de","contact_irc":"","contact_ml":"","contact_wiki":"","id":177,"lat":"48.4771","lng":"7.9461","name":"section77","url":"https://section77.de/"},{"address":"Ulmer Strasse 300, 70327 Stuttgart, Germany","contact_email":"kontakt@shackspace.de","contact_irc":"irc://irc.libera.chat:6697/shackspace","contact_ml":"public@shackspace.de","contact_wiki":"","id":178,"lat":"48.7745","lng":"9.239","name":"shackspace - stuttgart hackerspace","url":"https://shackspace.de"},{"address":"Josephstr. 2, 44791 Bochum, Germany","contact_email":"info@space-left.org","contact_irc":"","contact_ml":"discuss@space-left.org","contact_wiki":"","id":179,"lat":"51.49367","lng":"7.2108","name":"space-left","url":"https://www.space-left.org"},{"address":"Hochschulgruppe Turmlabor, c/o Fachschaftsrat Elektrotechnik, Helmholzstr. 18, Technische Universit\u00c3\u00a4t Dresden, 01062 Dresden, Germany","contact_email":"nachtsnochlicht@turmlabor.de","contact_irc":"","contact_ml":"","contact_wiki":"","id":180,"lat":"51.02709","lng":"13.72358","name":"turmlabor","url":"http://www.turmlabor.de"},{"address":"Augsburger Str. 23-25, 89231 Neu-Ulm, Germany","contact_email":"kontakt@temporaerhaus.de","contact_irc":"","contact_ml":"","contact_wiki":"","id":181,"lat":"48.3962895","lng":"10.0019903","name":"tempor\u00e4rhaus","url":"https://temporaerhaus.de/"},{"address":"Am Krebsgraben 15, 78048 VS-Villingen, Germany","contact_email":"info@vspace.one","contact_irc":"","contact_ml":"","contact_wiki":"","id":182,"lat":"48.067688","lng":"8.444397","name":"vspace.one","url":"https://vspace.one"},{"address":"Gr\u00fcnberger Str. 16, 10243 Berlin, Germany","contact_email":"info@x-hain.de","contact_irc":"","contact_ml":"","contact_wiki":"","id":183,"lat":"52.5127904","lng":"13.4497773","name":"xHain hack+makespace","url":"https://x-hain.de"},{"address":"Seilerstrasse 1, 08056 Zwickau, Germany","contact_email":"info@z-labor.space","contact_irc":"irc://irc.hackint.eu/#z-labor","contact_ml":"","contact_wiki":"","id":184,"lat":"50.722616453","lng":"12.480350733","name":"z-Labor Zwickau","url":"https://z-labor.space"}]
